{
    "bars": [
        {
            "key": "Bar 1",
            "location": {"lat": 48.6480495744828,"lng":  1.8157557433476355 },
            "title": "Bar scène 1",
            "image": "../assets/bars.png",
            "width": "25rem",
            "height": "25rem"
        },
        {
            "key": "Bar 2",
            "location": { "lat": 48.645888305467395,"lng":  1.812579226760014  },
            "title": "Bar scène 2",
            "image": "../assets/bars.png",
            "width": "25rem",
            "height": "25rem"
        }
    ],
    "parkings": [
        {
            "key": "Parking 1",
            "location": { "lat": 48.648460697389204,"lng":  1.817590374250487  },
            "title": "Parking 1",
            "image": "../assets/parking.png",
            "width": "25rem",
            "height": "25rem"
        },
        {
            "key": "Parking 2",
            "location": { "lat": 48.64546934730316,"lng":  1.8100158162539175  },
            "title": "Parking 2",
            "image": "../assets/parking.png",
            "width": "25rem",
            "height": "25rem"
        }
    ],
    "scenes": [
        {
            "key": "Scène 1",
            "location": { "lat": 48.64939007376746,"lng":  1.815133972632164  },
            "title": "Scène 1",
            "image": "../assets/scene.png",
            "width": "35rem",
            "height": "35rem"
        },
        {
            "key": "Scène 2",
            "location": { "lat": 48.64676680373308,"lng":  1.8116805604899497  },
            "title": "Scène 2",
            "image": "../assets/scene.png",
             "width": "35rem",
            "height": "35rem"
        }
    ],
    "exits": [
        {
            "key": "Entrée 1",
            "location": { "lat": 48.647657122855406,"lng":  1.815491457154483  },
            "title": "Entrée 1",
            "image": "../assets/entrer.png",
            "width": "25rem",
            "height": "25rem"
        },
        {
            "key": "Entrée 2",
            "location": { "lat": 48.646402458672014,"lng":  1.8140859796791988  },
            "title": "Entrée 2",
            "image": "../assets/entrer.png",
            "width": "25rem",
            "height": "25rem"
        },
        {
            "key": "Entrée 3",
            "location": { "lat": 48.6474870007277,"lng":  1.814053793172131  },
            "title": "Entrée 3",
            "image": "../assets/entrer.png",
            "width": "25rem",
            "height": "25rem"
        }
    ],
    "toilets": [
        {
            "key": "Toilettes 1",
            "location": { "lat": 48.647333645559215,"lng": 1.8149296229995675  },
            "title": "Toilettes scène 1",
            "image": "../assets/toilettes.png",
            "width": "25rem",
            "height": "25rem"
        },
        {
            "key": "Toilettes 2",
            "location": { "lat": 48.64709761471343,"lng":  1.8145376530262565  },
            "title": "Toilettes scène 2",
            "image": "../assets/toilettes.png",
            "width": "25rem",
            "height": "25rem"
        }
    ],
    "camping": [
        {
            "key": "Camping",
            "location": { "lat": 48.64549770213722,"lng":  1.807601828007549  },
            "title": "Camping",
            "image": "../assets/camping.png",
            "width": "30rem",
            "height": "30rem"

        }
    ]
}